[{"time":"2017-10-15T22:29:00+0000","name":"NO NAME","lat":35,"lng":136},{"time":"2017-10-15T14:20:38+0000","name":"Hanoi, Vietnam","lat":21.0333,"lng":105.85},{"time":"2017-10-07T10:15:39+0000","name":"Cafe Xe Buýt","lat":16.54141,"lng":107.67648},{"time":"2017-10-04T04:41:35+0000","name":"Hue College Of Foreign Language","lat":16.443102992427,"lng":107.59967669349},{"time":"2017-10-02T11:42:01+0000","name":"Hue, Vietnam","lat":16.4667,"lng":107.6},{"time":"2017-10-02T07:33:23+0000","name":"Ho Chi Minh City, Vietnam","lat":10.7694,"lng":106.682},{"time":"2017-09-16T13:42:04+0000","name":"石巻市","lat":35.64683643,"lng":139.79215334},{"time":"2017-03-14T10:38:10+0000","name":"NO NAME","lat":35,"lng":136},{"time":"2017-02-24T06:37:12+0000","name":"Hội An, Vietnam","lat":15.8794,"lng":108.335},{"time":"2017-02-24T04:06:24+0000","name":"Da Nang, Vietnam","lat":16.0678,"lng":108.221},{"time":"2017-02-22T10:13:37+0000","name":"Hanoi, Vietnam","lat":21.0333,"lng":105.85},{"time":"2017-02-20T08:27:45+0000","name":"Nanning, China","lat":22.8167,"lng":108.317},{"time":"2017-02-18T07:41:35+0000","name":"Guangzhou, China","lat":23.1167,"lng":113.25},{"time":"2017-02-17T07:39:29+0000","name":"Shenzhen, China","lat":22.55,"lng":114.1},{"time":"2017-02-16T06:57:44+0000","name":"Hong Kong","lat":22.2809,"lng":114.178}]
